,CensusTract,State,County,Urban,Pop2010,OHU2010,LATracts20,lapop20share,PovertyRate,MedianFamilyIncome,lahunvhalfshare,lasnaphalfshare,lakids1,Lat,Long
0,2013000100,Alaska,Aleutians East Borough,0,3141,553,1,35.63,15.4,77941.0,23.69,12.44,346.0,55.2437223,-161.9507485
1,2016000100,Alaska,Aleutians West Census Area,0,1185,285,1,100.0,16.6,61250.0,36.24,13.3,204.0,51.9594469,178.338813
2,2050000100,Alaska,Bethel Census Area,0,9483,2286,1,59.87,36.4,41250.0,78.89,53.35,3500.0,60.4122909,-162.6687595
3,2050000300,Alaska,Bethel Census Area,0,1450,469,1,100.0,27.6,45833.0,66.63,42.86,485.0,61.468804,-156.6922064
4,2068000100,Alaska,Denali Borough,0,1826,806,1,99.8,16.9,102500.0,3.11,5.63,411.0,63.6827316,-150.0267191
5,2070000100,Alaska,Dillingham Census Area,0,2466,692,1,70.14,22.5,44808.0,67.67,45.03,896.0,59.5784312,-157.7440524
6,2090001700,Alaska,Fairbanks North Star Borough,0,1422,566,1,43.74,8.5,71989.0,0.94,3.73,382.0,64.5528318,-145.7004439
7,2105000300,Alaska,Hoonah-Angoon Census Area,0,2055,872,1,99.27,9.6,73594.0,31.21,13.84,410.0,58.0764336,-135.1850997
8,2122000100,Alaska,Kenai Peninsula Borough,0,373,85,1,99.99,22.6,48125.0,26.53,36.73,50.0,60.1330992,-152.8251723
9,2122000300,Alaska,Kenai Peninsula Borough,0,895,431,1,66.48,5.7,76875.0,1.18,3.3,140.0,60.6087419,-149.4586399
10,2122001200,Alaska,Kenai Peninsula Borough,0,966,387,1,44.89,20.7,59808.0,29.6,17.87,254.0,59.3565642,-151.771544
11,2150000100,Alaska,Kodiak Island Borough,0,1832,700,1,35.16,16.0,91875.0,18.78,10.8,470.0,57.5536114,-153.6309109
12,2164000100,Alaska,Lake and Peninsula Borough,0,1631,553,1,99.96,15.9,48984.0,46.91,24.0,492.0,58.2050652,-156.7051884
13,2180000100,Alaska,Nome Census Area,0,5725,1529,1,37.97,31.9,42500.0,73.79,42.29,1720.0,64.7836858,-164.1889119
14,2185000200,Alaska,North Slope Borough,0,2690,748,1,39.33,16.8,65962.0,59.74,18.78,616.0,69.5790095,-154.2222177
15,2185000300,Alaska,North Slope Borough,0,2527,1,1,95.41,1.2,0.0,0.0,0.0,0.0,70.1018857,-149.8673597
16,2188000100,Alaska,Northwest Arctic Borough,0,4322,965,1,63.71,30.6,45724.0,79.5,45.14,1464.0,67.0770478,-160.0167753
17,2198000100,Alaska,Prince of Wales-Hyder Census Area,0,1685,729,1,56.73,15.4,54688.0,11.47,14.74,281.0,55.5184905,-132.7447917
18,2198000300,Alaska,Prince of Wales-Hyder Census Area,0,87,48,1,100.0,0.0,0.0,0.0,0.0,10.0,55.9547008,-130.1839812
19,2240000100,Alaska,Southeast Fairbanks Census Area,0,2219,902,1,33.37,21.5,60337.0,11.93,13.49,465.0,63.8450778,-142.6414889
20,2261000100,Alaska,Valdez-Cordova Census Area,0,2952,1249,1,47.04,12.8,74231.0,11.97,15.37,661.0,62.034479,-143.9221674
21,2290000100,Alaska,Yukon-Koyukuk Census Area,0,1311,558,1,55.51,33.2,37250.0,50.79,30.29,205.0,66.9848103,-144.4691658
22,2290000200,Alaska,Yukon-Koyukuk Census Area,0,1461,595,1,100.0,19.0,63750.0,30.22,22.13,355.0,65.9920784,-150.7374061
23,2290000300,Alaska,Yukon-Koyukuk Census Area,0,1758,658,1,100.0,24.0,50132.0,53.45,31.48,528.0,65.3573446,-156.2150948
24,2290000400,Alaska,Yukon-Koyukuk Census Area,0,1058,406,1,100.0,27.4,46667.0,57.72,31.74,311.0,62.9228127,-156.9418757
25,4001942600,Arizona,Apache County,0,1578,447,1,93.99,39.6,33542.0,13.66,38.77,531.0,36.749477,-109.8578291
26,4001942700,Arizona,Apache County,0,5628,1700,1,98.07,39.6,30824.0,12.22,26.44,1867.0,36.7552563,-109.3680582
27,4001944100,Arizona,Apache County,0,5870,1632,1,74.55,48.4,29922.0,19.75,36.15,2077.0,36.3889115,-109.316317
28,4001944300,Arizona,Apache County,0,6958,2088,1,24.59,40.5,33681.0,16.47,39.45,2463.0,36.3848205,-109.8233129
29,4001944901,Arizona,Apache County,0,4021,1207,1,22.11,41.7,33456.0,20.62,27.96,1402.0,35.6217526,-109.3752943
30,4001945002,Arizona,Apache County,0,3916,1264,1,31.55,37.8,33958.0,16.59,27.57,1150.0,35.4164983,-109.1802743
31,4001945100,Arizona,Apache County,0,2221,644,1,69.52,37.7,34375.0,10.97,31.89,775.0,35.0870836,-109.3201073
32,4003000100,Arizona,Cochise County,0,1971,910,1,82.97,14.9,42467.0,2.75,11.77,366.0,32.1897342,-109.3988452
33,4003000203,Arizona,Cochise County,0,2740,1316,1,47.94,12.6,53350.0,5.37,6.46,383.0,32.0559187,-109.8118843
34,4003000500,Arizona,Cochise County,0,5651,1497,1,32.02,17.0,52903.0,6.8,12.28,648.0,31.693002,-109.4347432
35,4005001500,Arizona,Coconino County,0,3186,1519,1,28.91,8.7,75574.0,0.15,6.67,463.0,34.8019504,-111.1794127
36,4005002200,Arizona,Coconino County,0,6457,2530,1,14.7,4.2,91599.0,0.53,6.3,1586.0,35.5776471,-111.7624697
37,4005002300,Arizona,Coconino County,0,6674,2688,1,47.39,9.3,81029.0,6.66,6.2,1134.0,35.7182452,-112.600369
38,4005942201,Arizona,Coconino County,0,4073,1048,1,40.07,27.1,46250.0,13.51,22.65,1368.0,36.5452151,-111.3261199
39,4005942202,Arizona,Coconino County,0,3813,962,1,98.47,33.5,39688.0,20.63,29.21,1433.0,36.7493591,-111.0190583
40,4005945000,Arizona,Coconino County,0,4180,1122,1,47.03,37.7,34107.0,16.71,37.47,1334.0,36.1799965,-111.5543698
41,4005945100,Arizona,Coconino County,0,3679,1062,1,75.35,28.4,47167.0,13.12,33.17,1128.0,35.7426632,-111.0304951
42,4007000600,Arizona,Gila County,0,1640,779,1,41.2,22.1,48365.0,0.0,17.61,281.0,34.0978445,-111.0155688
43,4009940500,Arizona,Graham County,0,4780,1059,1,43.35,43.1,36250.0,24.34,49.69,1711.0,33.301443,-109.9890866
44,4011960300,Arizona,Greenlee County,0,2588,1023,1,60.18,18.9,61555.0,2.75,10.48,667.0,32.7537823,-109.1416554
45,4012020100,Arizona,La Paz County,0,2815,1323,1,95.19,19.2,52545.0,3.43,11.43,437.0,33.8615016,-113.6299066
46,4012020501,Arizona,La Paz County,0,1984,1059,1,96.96,14.0,46845.0,3.51,11.21,164.0,33.6525942,-113.9501387
47,4012020502,Arizona,La Paz County,0,4388,2403,1,84.06,20.8,34494.0,11.45,9.74,297.0,33.7425935,-114.2145688
48,4013040515,Arizona,Maricopa County,0,4792,1950,1,24.86,23.3,69565.0,2.67,6.06,798.0,33.8374438,-113.0140904
49,4013050603,Arizona,Maricopa County,0,4536,1492,1,30.94,15.8,57216.0,0.33,19.94,1396.0,33.3160515,-113.0617096
50,4013723305,Arizona,Maricopa County,0,2745,863,1,99.42,36.6,34306.0,9.27,29.18,848.0,32.9279061,-113.059593
51,4013940700,Arizona,Maricopa County,0,151,38,1,100.0,16.8,0.0,33.33,43.59,51.0,32.5695914,-112.4175441
52,4015950401,Arizona,Mohave County,0,2051,1017,1,99.95,46.9,46618.0,6.79,17.84,252.0,35.6093369,-114.1753849
53,4015950402,Arizona,Mohave County,0,3950,1931,1,46.19,14.2,53695.0,0.76,14.33,437.0,35.7877549,-114.2152054
54,4015954800,Arizona,Mohave County,0,7012,2571,1,17.56,18.0,54538.0,2.88,11.28,716.0,34.8405587,-113.7617762
55,4017940010,Arizona,Navajo County,0,3088,842,1,19.98,45.5,28167.0,26.1,47.3,1166.0,36.0219444,-110.1118653
56,4017940012,Arizona,Navajo County,0,2759,831,1,97.47,35.9,47054.0,22.02,41.28,867.0,36.0383191,-110.6137878
57,4017940013,Arizona,Navajo County,0,4191,1210,1,82.56,42.0,36518.0,21.73,40.86,1367.0,35.7509151,-110.3264235
58,4017940014,Arizona,Navajo County,0,2750,786,1,51.12,50.6,25602.0,17.67,33.59,868.0,35.4148357,-110.0038573
59,4017940015,Arizona,Navajo County,0,4176,1158,1,90.87,39.0,35859.0,17.3,35.51,1328.0,35.3495902,-110.4416371
60,4017940100,Arizona,Navajo County,0,4096,1042,1,43.67,42.6,37045.0,17.26,41.69,1525.0,34.1330067,-110.3414721
61,4017942300,Arizona,Navajo County,0,2516,767,1,80.67,42.5,33125.0,14.88,27.77,764.0,36.6840509,-110.6114408
62,4019940600,Arizona,Pima County,0,1300,314,1,33.36,48.9,29250.0,28.28,41.0,400.0,32.2942119,-112.0374666
63,4019940700,Arizona,Pima County,0,1412,400,1,54.85,56.3,20909.0,33.96,43.37,474.0,32.1467601,-112.4666661
64,4019940800,Arizona,Pima County,0,4462,1218,1,27.54,52.3,26250.0,24.83,44.63,1497.0,31.9690517,-111.8293137
65,4021002400,Arizona,Pinal County,0,1997,729,1,92.52,24.8,45357.0,7.29,22.1,513.0,32.823151,-110.5862655
66,4023966000,Arizona,Santa Cruz County,0,3213,1482,1,34.24,12.5,60000.0,1.65,7.95,528.0,31.5664619,-110.6410279
67,4025002100,Arizona,Yavapai County,0,2349,1104,1,65.07,34.6,39286.0,0.0,19.06,398.0,35.14756,-112.9773018
68,4027012100,Arizona,Yuma County,0,1467,486,1,61.9,12.0,63281.0,3.28,8.37,450.0,33.1077362,-113.8376677
69,5061950100,Arkansas,Howard County,0,4108,1613,1,17.18,14.3,51728.0,3.77,11.57,1002.0,34.1777965,-94.0248332
70,6025012301,California,Imperial County,0,5633,458,1,14.05,12.7,80163.0,17.42,18.54,292.0,32.9323841,-115.9218123
71,6025012302,California,Imperial County,0,4756,1567,1,14.29,32.3,36755.0,3.19,11.47,1505.0,33.27526,-115.8770315
72,6025012400,California,Imperial County,0,1266,706,1,55.54,15.1,43419.0,0.0,4.28,114.0,33.2019033,-115.1126532
73,6027000800,California,Inyo County,0,3378,1565,1,31.87,18.0,48523.0,7.52,10.44,263.0,36.2036638,-117.1185271
74,6029005600,California,Kern County,0,2253,892,1,100.0,34.5,57167.0,16.82,21.5,621.0,35.0215717,-117.6746581
75,6029006500,California,Kern County,0,5152,1046,1,10.13,19.0,46343.0,7.92,21.46,577.0,35.2098975,-117.8818657
76,6035040100,California,Lassen County,0,1822,742,1,31.89,12.4,48750.0,4.37,7.46,343.0,40.8643392,-120.5937208
77,6035040600,California,Lassen County,0,3781,1091,1,92.26,17.2,60435.0,0.88,9.3,585.0,40.1324038,-120.152514
78,6037901209,California,Los Angeles County,0,1633,631,1,36.4,12.8,63824.0,0.0,7.34,330.0,34.7603754,-118.5802758
79,6049000200,California,Modoc County,0,1910,764,1,27.05,11.3,50476.0,2.57,8.13,473.0,41.5000454,-121.2561842
80,6049000400,California,Modoc County,0,1265,585,1,47.51,12.5,56827.0,0.6,2.92,234.0,41.5761782,-120.0968999
81,6051000102,California,Mono County,0,2502,1039,1,99.14,16.6,69779.0,4.43,5.31,565.0,38.2185656,-119.1246145
82,6053011502,California,Monterey County,0,1710,784,1,39.64,13.5,65441.0,0.0,1.77,260.0,36.3010787,-121.735102
83,6071008901,California,San Bernardino County,0,2174,915,1,26.6,28.7,53854.0,12.69,18.01,513.0,35.5376297,-117.3023776
84,6071010300,California,San Bernardino County,0,3846,1417,1,50.22,20.9,60489.0,5.38,13.79,957.0,35.143329,-115.8769708
85,6073021100,California,San Diego County,0,7589,2644,1,16.91,23.0,70882.0,2.27,6.22,1927.0,32.7026541,-116.456874
86,6083980100,California,Santa Barbara County,0,11,7,1,99.99,100.0,0.0,0.0,0.0,1.0,33.9481863,-120.0482206
87,6093000200,California,Siskiyou County,0,1955,758,1,33.17,23.1,39130.0,6.61,10.55,482.0,41.8591979,-121.934659
88,6111980000,California,Ventura County,0,56,0,1,100.0,0.0,0.0,0.0,0.0,0.0,33.2556547,-119.5035884
89,8023972600,Colorado,Costilla County,0,1646,704,1,68.3,30.7,35962.0,7.98,26.69,352.0,37.4204815,-105.3948681
90,8023972700,Colorado,Costilla County,0,1878,846,1,96.07,29.4,31948.0,9.53,31.85,384.0,37.1344746,-105.4595429
91,8033000100,Colorado,Dolores County,0,2064,899,1,80.71,13.6,50792.0,1.56,8.65,462.0,37.747602,-108.5303829
92,8039961100,Colorado,Elbert County,0,2010,792,1,65.1,10.0,63214.0,2.66,6.85,479.0,39.2372233,-103.9515656
93,8041003909,Colorado,El Paso County,0,6535,2419,1,15.25,5.6,82074.0,3.37,5.41,1737.0,39.0472993,-104.2966601
94,8041004602,Colorado,El Paso County,0,4289,1541,1,45.02,12.8,67625.0,1.49,9.53,1189.0,38.7105177,-104.2840142
95,8055960900,Colorado,Huerfano County,0,3438,1626,1,15.52,11.0,69180.0,0.95,6.34,500.0,37.6771595,-104.9536084
96,8061960100,Colorado,Kiowa County,0,1398,619,1,92.19,11.3,47417.0,4.84,14.33,314.0,38.3884664,-102.7562096
97,8069002401,Colorado,Larimer County,0,1217,574,1,77.26,4.1,66625.0,2.98,2.53,126.0,40.8683026,-105.5546688
98,8071000800,Colorado,Las Animas County,0,2766,928,1,21.82,14.2,66635.0,0.74,8.77,513.0,37.3799686,-103.8162865
99,8073961800,Colorado,Lincoln County,0,2104,894,1,31.1,14.2,64412.0,1.87,8.64,301.0,38.9182141,-103.4925124
100,8099000600,Colorado,Prowers County,0,1424,545,1,90.68,16.0,48800.0,1.95,8.94,368.0,37.9619083,-102.1458068
101,8109977600,Colorado,Saguache County,0,3143,1566,1,24.29,19.1,46500.0,8.65,13.01,435.0,38.1324118,-106.2972506
102,8121924100,Colorado,Washington County,0,2149,881,1,44.8,10.4,67708.0,2.97,5.56,543.0,39.8725436,-103.1535534
103,8123002501,Colorado,Weld County,0,4843,1862,1,23.66,7.5,79673.0,2.84,6.17,1207.0,40.7416554,-104.2456572
104,12021011102,Florida,Collier County,0,7291,3200,1,17.47,20.6,61696.0,1.83,7.42,962.0,25.9469098,-81.0960818
105,12051000600,Florida,Hendry County,0,5578,1394,1,11.08,35.7,48713.0,5.59,41.9,1204.0,26.4511753,-81.0504931
106,12087980000,Florida,Monroe County,0,24,12,1,37.5,0.0,0.0,0.0,0.0,3.0,25.3609034,-80.9423491
107,12093910102,Florida,Okeechobee County,0,2821,1001,1,23.8,29.3,37357.0,1.94,27.41,735.0,27.5165836,-80.9774365
108,12097043800,Florida,Osceola County,0,7194,2579,1,8.95,14.3,68377.0,1.63,11.91,1828.0,28.0113007,-81.0668577
109,15007041200,Hawaii,Kauai County,0,170,27,1,100.0,0.0,0.0,0.0,0.0,58.0,21.8949966,-160.1519135
110,16017950100,Idaho,Bonner County,0,2398,1123,1,24.12,26.5,49840.0,2.87,13.63,411.0,48.1557884,-116.2180319
111,16025970100,Idaho,Camas County,0,1117,487,1,82.79,23.3,55875.0,0.84,6.44,240.0,43.4633958,-114.8044265
112,16031950100,Idaho,Cassia County,0,3006,971,1,61.27,12.7,52269.0,0.0,6.93,1044.0,42.2909329,-113.3800898
113,16031950600,Idaho,Cassia County,0,2453,754,1,36.67,8.3,65000.0,0.82,8.59,887.0,42.224862,-114.015492
114,16033950100,Idaho,Clark County,0,982,345,1,100.0,19.7,50833.0,1.31,25.9,308.0,44.2862512,-112.3611202
115,16039960100,Idaho,Elmore County,0,2797,1160,1,71.18,23.8,45795.0,7.33,15.0,663.0,43.4279518,-115.3153279
116,16049960400,Idaho,Idaho County,0,1389,704,1,99.56,12.2,42750.0,4.89,8.55,188.0,45.3282487,-116.1296706
117,16051960100,Idaho,Jefferson County,0,3989,1205,1,56.0,13.2,59659.0,1.04,11.9,1451.0,43.8340586,-112.3661399
118,16059970300,Idaho,Lemhi County,0,2465,1091,1,27.27,13.6,53482.0,2.97,5.78,475.0,44.6674468,-113.5467783
119,16063950100,Idaho,Lincoln County,0,5208,1705,1,23.91,13.4,54250.0,1.02,10.49,1699.0,42.9861805,-114.1538989
120,16073950200,Idaho,Owyhee County,0,3913,1462,1,48.78,17.5,50776.0,3.23,9.46,1041.0,42.593063,-116.1426554
121,20025967100,Kansas,Clark County,0,2215,923,1,91.22,11.0,68281.0,1.94,5.82,559.0,37.2338311,-99.8138686
122,22075050800,Louisiana,Plaquemines Parish,0,1132,386,1,99.73,29.0,43152.0,3.45,8.02,282.0,29.1746857,-89.3970498
123,22115950100,Louisiana,Vernon Parish,0,5447,2186,1,11.35,14.0,66400.0,3.54,15.61,1176.0,31.2353819,-93.033515
124,23003952900,Maine,Aroostook County,0,2958,1272,1,18.08,15.7,54643.0,5.18,20.3,557.0,45.8248605,-68.1024043
125,23019025500,Maine,Penobscot County,0,1878,828,1,26.75,25.6,42500.0,5.78,30.63,325.0,45.451131,-68.1402755
126,23029955100,Maine,Washington County,0,2679,1132,1,38.33,23.3,46574.0,9.23,26.54,598.0,45.2031871,-67.7847786
127,26003000100,Michigan,Alger County,0,3869,1734,1,13.31,10.8,52895.0,4.18,9.28,452.0,46.5365505,-86.2382898
128,26033970700,Michigan,Chippewa County,0,1158,572,1,79.07,23.5,46364.0,5.93,7.66,167.0,46.4935381,-85.068124
129,26033971100,Michigan,Chippewa County,0,1650,847,1,87.83,7.8,51818.0,6.27,6.33,218.0,46.0082202,-83.7151203
130,26153000100,Michigan,Schoolcraft County,0,2611,1149,1,19.69,16.1,63485.0,5.93,11.98,499.0,46.2124794,-86.0511473
131,27031480100,Minnesota,Cook County,0,3126,1514,1,20.28,11.4,64203.0,2.89,4.08,394.0,47.9159037,-90.5384457
132,27071790500,Minnesota,Koochiching County,0,2419,1072,1,33.07,11.3,57656.0,4.13,11.87,480.0,48.1997355,-93.9378651
133,27089080100,Minnesota,Marshall County,0,2325,995,1,39.95,5.9,71429.0,2.84,3.25,527.0,48.3468357,-95.9236946
134,27137011200,Minnesota,St. Louis County,0,3315,1283,1,44.55,12.4,58750.0,6.1,8.27,803.0,46.9029108,-92.7426826
135,27137011300,Minnesota,St. Louis County,0,2151,919,1,39.27,6.3,66458.0,4.39,4.78,416.0,47.1780702,-92.7958573
136,29129470200,Missouri,Mercer County,0,2353,952,1,64.72,11.2,62500.0,4.73,5.51,650.0,40.3700522,-93.6426954
137,30001000100,Montana,Beaverhead County,0,1366,628,1,93.75,14.9,68000.0,0.0,6.28,284.0,45.1014235,-112.9579958
138,30003940500,Montana,Big Horn County,0,1436,483,1,45.94,22.9,55769.0,0.0,14.54,438.0,45.3552637,-108.0583508
139,30005940200,Montana,Blaine County,0,1330,400,1,99.96,42.1,37273.0,12.56,33.42,486.0,48.0958888,-108.7432551
140,30011000300,Montana,Carter County,0,1160,532,1,99.98,13.3,63750.0,3.73,1.92,203.0,45.5168247,-104.5153243
141,30013010400,Montana,Cascade County,0,1764,775,1,82.94,14.0,57237.0,2.92,10.44,334.0,47.101214,-111.6794224
142,30013010700,Montana,Cascade County,0,4455,1629,1,27.28,9.1,68523.0,3.08,7.55,984.0,47.4788274,-111.7292986
143,30015010300,Montana,Chouteau County,0,3688,1352,1,17.18,25.3,44805.0,5.85,13.97,1008.0,47.8606558,-110.2167309
144,30021000100,Montana,Dawson County,0,1456,613,1,39.7,9.8,69167.0,1.77,2.62,306.0,47.2598428,-104.9120212
145,30027030100,Montana,Fergus County,0,5011,2057,1,30.77,15.3,69728.0,3.86,3.39,980.0,47.2229967,-109.2232798
146,30033000100,Montana,Garfield County,0,1206,532,1,41.55,5.3,59750.0,0.76,1.67,213.0,47.2811742,-106.9822116
147,30035940400,Montana,Glacier County,0,4330,1258,1,15.69,26.9,54398.0,3.48,14.16,1343.0,48.7051933,-112.9256149
148,30035980000,Montana,Glacier County,0,24,12,1,52.02,21.1,67232.0,0.0,0.0,2.0,48.7650025,-113.6386873
149,30037000100,Montana,Golden Valley County,0,884,363,1,94.15,14.5,47750.0,0.59,13.06,192.0,46.3806243,-109.1745855
150,30039961700,Montana,Granite County,0,3079,1417,1,78.01,8.2,55691.0,2.81,11.95,524.0,46.3953581,-113.4256827
151,30041040100,Montana,Hill County,0,1336,564,1,73.87,13.0,61042.0,3.57,3.65,296.0,48.6026574,-110.3900783
152,30043962202,Montana,Jefferson County,0,3977,1577,1,49.16,10.7,76250.0,2.76,6.67,878.0,46.2737975,-112.1326505
153,30049000100,Montana,Lewis and Clark County,0,2132,986,1,99.57,17.2,54946.0,0.72,7.25,347.0,47.3485971,-112.6310422
154,30051050100,Montana,Liberty County,0,2339,822,1,27.76,14.3,63051.0,12.07,3.84,514.0,48.5596541,-111.0369242
155,30059000100,Montana,Meagher County,0,1891,806,1,99.83,15.0,50750.0,3.28,10.01,365.0,46.5857058,-110.9217812
156,30061964500,Montana,Mineral County,0,2087,957,1,28.17,14.1,53000.0,4.61,15.42,272.0,46.9877371,-114.7614164
157,30067000100,Montana,Park County,0,1785,803,1,33.79,9.7,63906.0,2.43,2.68,347.0,45.9431341,-110.5519329
158,30067000200,Montana,Park County,0,4067,1821,1,15.41,12.6,77143.0,2.33,5.6,672.0,45.4219048,-110.5327983
159,30069000100,Montana,Petroleum County,0,494,225,1,100.0,8.4,62500.0,0.53,2.67,113.0,47.1419168,-108.2265753
160,30071060200,Montana,Phillips County,0,4253,1819,1,24.94,14.9,60690.0,3.38,2.77,496.0,48.2501547,-107.9288331
161,30075000100,Montana,Powder River County,0,1743,755,1,33.73,10.4,58438.0,0.65,1.75,255.0,45.4088904,-105.5552589
162,30079000100,Montana,Prairie County,0,1179,551,1,97.78,11.2,62202.0,2.22,1.3,209.0,46.8524335,-105.375808
163,30083070200,Montana,Richland County,0,1573,646,1,39.77,6.6,82500.0,0.0,0.87,378.0,47.6627331,-104.5644911
164,30085080100,Montana,Roosevelt County,0,1578,678,1,99.64,9.8,90833.0,3.7,2.82,370.0,48.2173913,-104.3281098
165,30089000200,Montana,Sanders County,0,5988,2688,1,30.86,16.1,43902.0,2.01,14.67,1047.0,47.8290421,-115.6185618
166,30099000100,Montana,Teton County,0,1819,703,1,52.63,17.9,65139.0,1.55,5.63,447.0,47.8760434,-111.8677601
167,30101000100,Montana,Toole County,0,1249,507,1,77.59,10.0,67105.0,12.48,2.24,302.0,48.8340293,-111.7615515
168,30103963500,Montana,Treasure County,0,718,335,1,94.37,16.0,47143.0,3.29,6.58,134.0,46.209636,-107.2804935
169,30105100100,Montana,Valley County,0,1513,682,1,48.79,6.5,67917.0,1.41,1.39,274.0,47.9976691,-107.0664246
170,30109000100,Montana,Wibaux County,0,1017,457,1,99.67,15.8,53333.0,3.02,6.64,217.0,46.9628656,-104.2744656
171,31005958300,Nebraska,Arthur County,0,460,187,1,97.24,10.3,66250.0,0.0,2.59,125.0,41.5708557,-101.697045
172,31009972400,Nebraska,Blaine County,0,478,196,1,99.99,12.5,54732.0,4.59,3.21,117.0,41.9252304,-99.990771
173,31031955900,Nebraska,Cherry County,0,1426,604,1,70.23,12.7,63539.0,2.15,3.53,339.0,42.4672013,-101.0860742
174,31045950600,Nebraska,Dawes County,0,3013,1258,1,46.65,14.0,60924.0,1.98,4.66,557.0,42.7112144,-103.1348721
175,31085961500,Nebraska,Hayes County,0,967,414,1,76.56,12.4,64286.0,1.69,4.6,223.0,40.5357859,-101.0555802
176,31087962700,Nebraska,Hitchcock County,0,2908,1301,1,20.63,12.7,56375.0,3.26,8.85,621.0,40.1768964,-101.044217
177,31091956700,Nebraska,Hooker County,0,736,326,1,98.28,17.0,59167.0,0.31,4.7,157.0,41.9187,-101.1168102
178,31103975400,Nebraska,Keya Paha County,0,824,381,1,35.92,6.1,55250.0,0.61,1.53,179.0,42.8754803,-99.7183514
179,31111960600,Nebraska,Lincoln County,0,3861,1457,1,16.19,5.0,85875.0,0.26,1.75,999.0,40.8764865,-100.9508973
180,31117957900,Nebraska,McPherson County,0,539,211,1,77.32,17.0,69250.0,0.99,2.96,151.0,41.5964727,-101.0602369
181,31165950100,Nebraska,Sioux County,0,1311,577,1,56.61,10.7,53750.0,5.88,5.35,293.0,42.483806,-103.7426049
182,31171957100,Nebraska,Thomas County,0,647,291,1,99.55,10.7,75227.0,0.34,0.0,148.0,41.8486202,-100.5069105
183,32003005703,Nevada,Clark County,0,1440,760,1,62.8,7.1,36250.0,18.15,0.89,121.0,35.557329,-114.9269665
184,32003005818,Nevada,Clark County,0,990,423,1,99.73,12.2,63611.0,4.09,11.7,211.0,36.4691425,-115.7787518
185,32003005827,Nevada,Clark County,0,6125,2212,1,33.47,7.9,92656.0,1.88,5.32,1022.0,35.886275,-115.5113299
186,32007951700,Nevada,Elko County,0,2669,1041,1,60.58,40.9,32000.0,11.75,18.03,677.0,41.6269805,-115.7280971
187,32009950100,Nevada,Esmeralda County,0,783,389,1,97.19,7.2,45417.0,6.21,7.49,132.0,37.7789658,-117.6323824
188,32011000100,Nevada,Eureka County,0,1987,836,1,28.72,7.7,90486.0,3.98,2.99,328.0,39.9777878,-116.2722082
189,32013010500,Nevada,Humboldt County,0,6116,2320,1,24.19,8.7,79750.0,3.15,4.5,1361.0,41.4947042,-118.2962522
190,32015000300,Nevada,Lander County,0,5775,2213,1,10.23,14.9,102390.0,3.52,7.35,564.0,39.9002105,-117.0472398
191,32023960100,Nevada,Nye County,0,2330,930,1,35.53,3.4,69808.0,0.22,5.99,340.0,38.6693856,-116.3756969
192,32023960300,Nevada,Nye County,0,2488,1066,1,99.64,26.8,53574.0,6.83,20.26,595.0,36.9027756,-116.7543557
193,32027960100,Nevada,Pershing County,0,6753,2018,1,7.92,15.1,58819.0,2.52,9.95,759.0,40.439639,-118.4094765
194,32031003501,Nevada,Washoe County,0,4205,1621,1,16.75,12.0,93664.0,2.95,4.58,909.0,40.8944508,-119.6427821
195,35003976400,New Mexico,Catron County,0,3725,1787,1,96.27,22.9,50286.0,0.0,5.5,590.0,33.9018135,-108.3920974
196,35006945800,New Mexico,Cibola County,0,2083,711,1,100.0,42.6,28750.0,15.64,41.74,620.0,34.9019813,-108.3934063
197,35007950700,New Mexico,Colfax County,0,5688,2527,1,58.29,23.3,51013.0,2.53,14.39,977.0,36.4792323,-104.7523081
198,35009000601,New Mexico,Curry County,0,1240,533,1,75.4,14.0,49537.0,2.82,12.08,282.0,34.5032817,-103.5759385
199,35017964200,New Mexico,Grant County,0,2153,980,1,39.41,9.7,48750.0,3.26,2.58,444.0,32.8267675,-108.7554152
200,35019961600,New Mexico,Guadalupe County,0,4687,1766,1,24.66,14.5,41319.0,4.28,11.22,500.0,34.8697822,-104.7849677
201,35021000100,New Mexico,Harding County,0,695,349,1,98.31,18.3,44219.0,8.06,3.79,92.0,35.8631519,-103.8299311
202,35023970000,New Mexico,Hidalgo County,0,2195,898,1,66.88,20.8,57222.0,2.78,8.46,506.0,31.8996575,-108.7457292
203,35025001100,New Mexico,Lea County,0,4557,1661,1,28.88,13.8,60229.0,2.75,8.73,1254.0,33.1171396,-103.421158
204,35027960200,New Mexico,Lincoln County,0,1826,822,1,31.1,22.5,51250.0,7.38,12.0,290.0,33.9119459,-105.6609608
205,35029000400,New Mexico,Luna County,0,5936,2274,1,32.21,24.4,29568.0,4.8,26.65,1539.0,32.0194106,-107.5592262
206,35031943600,New Mexico,McKinley County,0,5846,1665,1,11.94,44.9,27297.0,15.53,37.94,1964.0,35.570425,-108.4163073
207,35031943700,New Mexico,McKinley County,0,3854,1177,1,20.96,37.2,32804.0,11.62,29.38,1114.0,35.8273505,-108.4883804
208,35031943800,New Mexico,McKinley County,0,6253,1728,1,18.87,42.2,31731.0,11.57,30.5,2137.0,35.8446811,-108.8779046
209,35031944000,New Mexico,McKinley County,0,2186,660,1,64.13,40.5,31406.0,14.98,42.81,716.0,35.6490995,-107.5543105
210,35031945700,New Mexico,McKinley County,0,2197,704,1,27.32,42.4,36154.0,12.98,28.26,611.0,35.25744,-108.8530099
211,35031946000,New Mexico,McKinley County,0,5677,1653,1,48.48,49.8,25761.0,14.91,31.58,1941.0,35.4287389,-108.0451825
212,35031973100,New Mexico,McKinley County,0,1080,430,1,71.78,12.6,69871.0,8.14,11.16,245.0,35.3088542,-108.4489165
213,35033955200,New Mexico,Mora County,0,4881,2114,1,79.8,19.3,32563.0,6.21,31.21,1042.0,35.9828413,-104.9218975
214,35035000902,New Mexico,Otero County,0,9941,2624,1,7.21,47.1,23558.0,8.63,36.37,3121.0,32.3570031,-105.6052627
215,35037958900,New Mexico,Quay County,0,3018,1374,1,45.4,10.8,59250.0,0.5,3.68,554.0,35.1070184,-103.5480712
216,35039000400,New Mexico,Rio Arriba County,0,4766,1993,1,41.21,0.0,0.0,7.54,8.64,1046.0,36.4277649,-106.2948447
217,35039000500,New Mexico,Rio Arriba County,0,3711,1584,1,23.91,0.0,0.0,6.62,6.03,641.0,36.5522912,-106.6388469
218,35043011200,New Mexico,Sandoval County,0,2729,1124,1,45.72,19.1,57500.0,5.33,11.58,571.0,35.7721753,-106.701573
219,35043940600,New Mexico,Sandoval County,0,1815,474,1,99.95,26.2,44688.0,9.22,29.26,525.0,35.6086661,-106.7446803
220,35043940900,New Mexico,Sandoval County,0,2668,761,1,78.3,68.0,17188.0,10.35,40.67,915.0,36.0176605,-107.330207
221,35045942900,New Mexico,San Juan County,0,4929,1597,1,90.42,40.6,30820.0,16.8,33.97,1438.0,36.3836535,-108.8311273
222,35045943100,New Mexico,San Juan County,0,1943,600,1,100.0,29.4,42875.0,11.42,27.59,547.0,36.084158,-108.6702949
223,35045943201,New Mexico,San Juan County,0,5702,1711,1,42.25,36.0,32292.0,6.13,27.53,1809.0,36.3192698,-107.9727547
224,35047957500,New Mexico,San Miguel County,0,4395,1743,1,18.08,17.2,45313.0,3.65,12.62,1012.0,35.5019691,-104.5745347
225,35047957700,New Mexico,San Miguel County,0,2457,1013,1,57.57,32.5,34188.0,1.63,26.24,532.0,35.2367578,-105.5261966
226,35051962402,New Mexico,Sierra County,0,2589,1169,1,19.54,23.1,40339.0,0.0,15.78,492.0,33.0810766,-107.5857733
227,35053940000,New Mexico,Socorro County,0,1564,382,1,100.0,67.2,19375.0,25.84,20.22,561.0,34.4151465,-107.53838
228,35053978200,New Mexico,Socorro County,0,1851,801,1,52.63,18.1,48984.0,4.79,7.83,410.0,34.0117561,-107.3024335
229,35057963600,New Mexico,Torrance County,0,6854,2450,1,16.26,28.9,54270.0,3.6,24.43,1556.0,34.7948559,-106.0058557
230,35057963700,New Mexico,Torrance County,0,2294,1013,1,100.0,26.5,60469.0,6.4,15.87,493.0,34.5165174,-105.7535813
231,35059950200,New Mexico,Union County,0,4549,1695,1,21.31,14.1,47159.0,5.07,8.93,386.0,36.4880853,-103.4757229
232,37095920100,North Carolina,Hyde County,0,5810,2119,1,16.3,22.3,49939.0,1.06,21.15,991.0,35.5349507,-76.2644003
233,38003968000,North Dakota,Barnes County,0,2740,1114,1,22.91,8.7,90250.0,3.55,6.14,639.0,46.9378899,-98.2386211
234,38005956600,North Dakota,Benson County,0,972,464,1,72.9,8.9,68906.0,4.02,6.88,189.0,47.9851423,-99.5858572
235,38007963100,North Dakota,Billings County,0,783,358,1,73.98,8.6,106964.0,1.56,1.04,138.0,47.0092826,-103.3649241
236,38009952500,North Dakota,Bottineau County,0,1861,794,1,47.91,8.3,80536.0,2.04,6.22,415.0,48.7703061,-101.2015486
237,38015011400,North Dakota,Burleigh County,0,2352,925,1,22.13,8.8,97803.0,1.31,1.34,552.0,46.8160787,-100.3712269
238,38015011500,North Dakota,Burleigh County,0,1500,627,1,34.93,6.0,90313.0,2.43,1.9,321.0,47.1483899,-100.4845338
239,38017040100,North Dakota,Cass County,0,1955,813,1,40.66,5.5,80240.0,2.64,2.21,478.0,46.9112595,-97.5454392
240,38017040200,North Dakota,Cass County,0,2291,888,1,29.47,3.0,100385.0,2.95,2.56,610.0,47.1297474,-97.1444195
241,38025962200,North Dakota,Dunn County,0,3536,1401,1,15.61,8.9,92639.0,0.97,3.4,603.0,47.3546096,-102.6123649
242,38033962900,North Dakota,Golden Valley County,0,1680,774,1,100.0,6.5,70897.0,5.25,3.97,404.0,46.9389237,-103.8446117
243,38041964700,North Dakota,Hettinger County,0,1134,491,1,82.04,12.6,64250.0,0.97,6.76,229.0,46.4064976,-102.2257352
244,38041964800,North Dakota,Hettinger County,0,1343,565,1,97.42,6.6,71429.0,1.92,5.53,239.0,46.4614484,-102.6644893
245,38043966800,North Dakota,Kidder County,0,2435,1059,1,100.0,10.0,62132.0,1.73,6.54,523.0,46.9753973,-99.7757425
246,38047972500,North Dakota,Logan County,0,1990,843,1,41.78,7.5,73958.0,2.95,3.06,420.0,46.469278,-99.5045846
247,38049955600,North Dakota,McHenry County,0,2512,1124,1,31.19,10.7,83929.0,2.99,9.58,548.0,48.3880557,-100.6444479
248,38049955900,North Dakota,McHenry County,0,2883,1253,1,19.89,6.9,87664.0,2.27,5.08,359.0,48.0147679,-100.6174187
249,38055961000,North Dakota,McLean County,0,5053,2184,1,11.99,11.3,76570.0,2.58,3.84,750.0,47.6958856,-101.4324873
250,38059020400,North Dakota,Morton County,0,3026,1172,1,22.89,2.5,109318.0,1.23,0.75,755.0,46.6253142,-100.997491
251,38063959000,North Dakota,Nelson County,0,3126,1474,1,75.79,10.5,73068.0,2.24,6.36,560.0,47.9186666,-98.2044278
252,38071957700,North Dakota,Ramsey County,0,2845,1194,1,19.9,6.8,99107.0,0.28,4.0,590.0,48.2655513,-98.7373289
253,38083960200,North Dakota,Sheridan County,0,1321,645,1,73.77,14.0,64583.0,4.79,11.18,211.0,47.5813734,-100.3414991
254,38087965000,North Dakota,Slope County,0,727,326,1,46.38,5.5,74107.0,0.91,3.95,146.0,46.4458339,-103.462462
255,38093967000,North Dakota,Stutsman County,0,2555,1061,1,24.44,6.8,92986.0,0.47,1.8,558.0,47.1286697,-98.9638091
256,38093967200,North Dakota,Stutsman County,0,2683,1122,1,34.96,7.0,81484.0,1.81,2.21,650.0,46.7703032,-98.9548437
257,38103960000,North Dakota,Wells County,0,2384,1100,1,21.23,6.9,78542.0,0.98,1.77,415.0,47.5808513,-99.6715023
258,40043959300,Oklahoma,Dewey County,0,1303,563,1,59.57,14.9,62721.0,2.24,8.2,290.0,35.9131463,-99.0791414
259,40089098200,Oklahoma,McCurtain County,0,2698,1073,1,78.0,20.6,48967.0,5.73,14.7,671.0,34.3596862,-94.7586949
260,41001950600,Oregon,Baker County,0,1924,939,1,91.41,14.0,51667.0,1.33,11.03,293.0,44.851074,-117.2473647
261,41019100000,Oregon,Douglas County,0,3229,1301,1,16.64,18.7,55417.0,2.8,16.36,577.0,43.3251131,-122.5428477
262,41021960100,Oregon,Gilliam County,0,1871,864,1,38.63,10.7,52917.0,4.35,10.46,252.0,45.381666,-120.2118514
263,41023960100,Oregon,Grant County,0,2157,963,1,40.39,18.9,57833.0,1.64,12.58,404.0,44.6276205,-118.8394135
264,41025960200,Oregon,Harney County,0,2141,869,1,28.81,10.3,63466.0,2.73,7.49,505.0,42.9497423,-118.9026357
265,41035970100,Oregon,Klamath County,0,3038,1391,1,17.83,13.6,42474.0,4.88,18.95,415.0,43.269122,-121.7828995
266,41035970200,Oregon,Klamath County,0,4723,2134,1,88.06,27.3,43505.0,2.9,24.95,796.0,42.6973333,-121.5461416
267,41035970500,Oregon,Klamath County,0,1608,680,1,35.79,22.3,45461.0,5.83,22.91,314.0,42.2903553,-121.1010728
268,41037960100,Oregon,Lake County,0,2756,1275,1,97.69,16.2,41783.0,6.36,17.49,556.0,42.8670655,-120.3777704
269,41045970900,Oregon,Malheur County,0,5899,1208,1,19.55,14.3,62222.0,2.57,11.68,660.0,43.1642118,-117.6210009
270,41065970800,Oregon,Wasco County,0,4452,1757,1,31.3,13.4,60104.0,4.36,18.41,944.0,45.1011584,-121.1855501
271,41069960100,Oregon,Wheeler County,0,1441,651,1,60.13,20.0,49500.0,4.54,18.31,259.0,44.7364108,-120.026875
272,45019005000,South Carolina,Charleston County,0,4913,1937,1,14.71,21.0,60938.0,7.39,18.83,917.0,33.0459685,-79.5503933
273,46019967600,South Dakota,Butte County,0,2972,1230,1,32.42,10.9,61058.0,1.84,11.73,687.0,44.8964345,-103.5017616
274,46041941700,South Dakota,Dewey County,0,2819,957,1,59.91,25.0,52885.0,4.95,19.78,866.0,45.1500047,-100.8522182
275,46047964100,South Dakota,Fall River County,0,2787,1291,1,26.77,20.5,52401.0,3.57,8.54,532.0,43.2215038,-103.5121024
276,46055960100,South Dakota,Haakon County,0,1937,850,1,30.04,13.3,39861.0,1.38,1.13,258.0,44.2843122,-101.5917895
277,46063968700,South Dakota,Harding County,0,1255,539,1,96.02,8.5,61250.0,0.73,1.46,292.0,45.5966116,-103.4738669
278,46073974100,South Dakota,Jerauld County,0,2071,870,1,76.82,8.3,66406.0,3.19,4.14,435.0,44.0634157,-98.6231878
279,46075091600,South Dakota,Jones County,0,1006,458,1,91.73,10.6,45921.0,2.23,6.45,225.0,43.9519896,-100.6861386
280,46085972600,South Dakota,Lyman County,0,2275,1005,1,53.64,7.6,68472.0,1.42,3.57,423.0,43.8546538,-99.8752588
281,46093020500,South Dakota,Meade County,0,4380,1685,1,25.83,5.9,60781.0,0.75,3.57,1018.0,44.6002397,-102.5835662
282,46119979100,South Dakota,Sully County,0,1373,610,1,70.48,4.4,79643.0,2.26,2.29,310.0,44.722325,-100.1313985
283,46137941600,South Dakota,Ziebach County,0,2801,836,1,26.22,41.0,38068.0,8.97,22.34,626.0,44.9816662,-101.6692245
284,48019000200,Texas,Bandera County,0,2726,1183,1,23.14,13.6,54922.0,0.53,10.58,541.0,29.7597657,-99.3923979
285,48033950100,Texas,Borden County,0,641,264,1,67.02,2.6,96691.0,1.92,1.92,138.0,32.7440621,-101.4330328
286,48043950500,Texas,Brewster County,0,3161,1509,1,55.36,12.8,55486.0,5.58,6.93,478.0,29.8089965,-103.2524579
287,48045950200,Texas,Briscoe County,0,1637,692,1,90.1,15.6,54200.0,3.48,11.23,362.0,34.5251725,-101.205893
288,48081950100,Texas,Coke County,0,1676,725,1,61.2,12.5,55673.0,6.09,3.89,379.0,31.917756,-100.3602362
289,48081950200,Texas,Coke County,0,1644,741,1,94.41,18.8,62784.0,1.51,12.18,320.0,31.877105,-100.6352358
290,48101950100,Texas,Cottle County,0,1505,677,1,96.19,31.4,40469.0,9.23,24.93,350.0,34.0919063,-100.2764416
291,48155950100,Texas,Foard County,0,1336,573,1,80.9,6.9,54306.0,4.85,17.59,278.0,33.980404,-99.7774272
292,48173950100,Texas,Glasscock County,0,1226,441,1,76.5,9.5,75583.0,0.0,0.69,352.0,31.8685906,-101.528971
293,48191950500,Texas,Hall County,0,3353,1372,1,15.47,23.2,38971.0,5.89,14.99,346.0,34.5208355,-100.6927009
294,48229950300,Texas,Hudspeth County,0,3476,1174,1,46.47,28.2,31165.0,3.79,25.56,1047.0,31.4508678,-105.3775489
295,48235950100,Texas,Irion County,0,1599,653,1,62.74,14.8,76389.0,0.96,4.42,368.0,31.3034241,-100.9813037
296,48263950100,Texas,Kent County,0,808,350,1,76.35,10.9,61667.0,10.06,11.32,185.0,33.1847797,-100.7697199
297,48269950100,Texas,King County,0,286,113,1,95.45,8.8,66806.0,0.0,6.59,68.0,33.6141593,-100.2505476
298,48283950300,Texas,La Salle County,0,6886,1931,1,26.91,12.1,53699.0,3.9,13.84,971.0,28.3510976,-99.0967743
299,48301950100,Texas,Loving County,0,82,39,1,88.93,18.6,101042.0,0.0,9.09,9.0,31.8449361,-103.5612293
300,48311950100,Texas,McMullen County,0,707,310,1,64.43,12.8,72750.0,4.04,4.93,119.0,28.3849219,-98.5788529
301,48359950100,Texas,Oldham County,0,2052,691,1,89.23,12.0,74148.0,1.85,6.45,698.0,35.4019206,-102.5976203
302,48371950100,Texas,Pecos County,0,2383,886,1,23.5,9.8,65313.0,1.54,3.58,290.0,31.1856233,-102.8789156
303,48385950100,Texas,Real County,0,3309,1374,1,97.08,22.8,50000.0,2.97,6.76,660.0,29.8230304,-99.805303
304,48389950500,Texas,Reeves County,0,975,377,1,97.52,8.1,54250.0,3.39,8.96,251.0,31.0333498,-103.6476675
305,48393950100,Texas,Roberts County,0,929,359,1,73.1,12.2,79688.0,3.54,4.18,236.0,35.8362157,-100.8075549
306,48427950101,Texas,Starr County,0,1268,483,1,82.04,29.1,43309.0,0.76,15.91,299.0,26.650857,-98.6058228
307,48431950100,Texas,Sterling County,0,1143,440,1,100.0,3.5,68411.0,0.65,4.55,279.0,31.8357739,-101.0549111
308,48443950100,Texas,Terrell County,0,984,430,1,99.95,15.0,51023.0,6.31,1.52,218.0,30.2323316,-102.0725386
309,48447950300,Texas,Throckmorton County,0,1641,721,1,65.27,14.7,64231.0,3.06,6.54,366.0,33.1707121,-99.2061367
310,48463950100,Texas,Uvalde County,0,3257,1245,1,28.64,14.3,45208.0,14.86,12.93,789.0,29.4380367,-99.5286644
311,48463950200,Texas,Uvalde County,0,7740,2744,1,6.54,27.0,53859.0,3.05,11.44,1762.0,29.3024654,-99.8295626
312,48507950100,Texas,Zavala County,0,1232,388,1,80.68,54.1,0.0,32.35,48.04,380.0,28.956849,-99.6122673
313,49003960100,Utah,Box Elder County,0,3152,978,1,21.93,5.6,66284.0,0.45,3.7,1142.0,41.5165611,-113.1734542
314,49007000600,Utah,Carbon County,0,4416,1664,1,26.89,14.7,57214.0,2.21,10.79,1189.0,39.6487141,-110.4005402
315,49009960100,Utah,Daggett County,0,1059,426,1,100.0,4.7,96333.0,4.83,0.0,243.0,40.890099,-109.5057855
316,49013940300,Utah,Duchesne County,0,3847,1311,1,23.48,11.0,60369.0,1.69,6.43,619.0,40.2620858,-110.5313665
317,49015976500,Utah,Emery County,0,3462,1198,1,32.7,16.0,55917.0,3.45,7.49,573.0,38.931108,-110.664459
318,49017000400,Utah,Garfield County,0,2795,1122,1,89.88,13.6,67361.0,3.03,3.01,689.0,37.8258672,-111.2739123
319,49031960100,Utah,Piute County,0,1556,576,1,62.38,17.1,44167.0,1.4,8.42,468.0,38.3358805,-112.1293755
320,49033950100,Utah,Rich County,0,2264,805,1,96.02,15.9,63500.0,0.4,2.74,704.0,41.6275976,-111.2402269
321,49037942000,Utah,San Juan County,0,3882,1068,1,96.26,39.7,35333.0,13.96,24.36,1395.0,37.1948026,-109.3389774
322,49037942100,Utah,San Juan County,0,2187,613,1,37.93,43.1,28250.0,8.98,31.88,816.0,37.1162483,-110.4057948
323,49037978100,Utah,San Juan County,0,3773,1280,1,15.78,11.3,66842.0,1.53,3.53,518.0,38.100963,-109.3743776
324,49043964203,Utah,Summit County,0,103,45,1,36.23,0.0,0.0,0.0,14.29,23.0,40.8523726,-110.6511974
325,49045130600,Utah,Tooele County,0,2477,868,1,40.12,24.6,50417.0,19.59,9.87,850.0,40.5016482,-113.5949484
326,51091970100,Virginia,Highland County,0,2321,1081,1,25.31,12.3,54922.0,7.13,6.5,346.0,38.3566717,-79.5679583
327,53019940000,Washington,Ferry County,0,1731,656,1,57.29,27.7,42639.0,4.07,30.05,463.0,48.2182275,-118.5224708
328,53027000300,Washington,Grays Harbor County,0,3334,1319,1,16.27,11.9,60259.0,2.29,13.58,666.0,47.2804542,-123.8016043
329,53031950702,Washington,Jefferson County,0,2131,796,1,27.34,16.5,61250.0,4.09,11.86,257.0,47.7378495,-123.8276924
330,53043960400,Washington,Lincoln County,0,2998,1283,1,17.67,16.1,54327.0,1.3,13.09,468.0,47.397694,-118.3662834
331,53059950100,Washington,Skamania County,0,98,51,1,36.35,14.0,66250.0,0.0,25.0,11.0,46.083448,-121.9117513
332,53065950100,Washington,Stevens County,0,7292,3158,1,9.35,16.0,54009.0,2.48,18.72,1020.0,48.8297647,-117.8801521
333,53075001000,Washington,Whitman County,0,2115,898,1,24.46,10.9,68716.0,1.79,6.52,472.0,46.744457,-117.9923064
334,54075960101,West Virginia,Pocahontas County,0,1242,549,1,37.07,24.9,55458.0,4.69,8.57,213.0,38.4471769,-79.7491116
335,56001963900,Wyoming,Albany County,0,2141,957,1,55.75,11.1,74740.0,0.74,1.8,364.0,41.6655141,-105.7218826
336,56005000700,Wyoming,Campbell County,0,8828,3228,1,7.6,12.1,83926.0,5.37,2.9,2555.0,44.6514742,-105.5491564
337,56007967600,Wyoming,Carbon County,0,2326,694,1,45.56,21.9,79844.0,1.53,3.35,410.0,41.7068338,-107.3673125
338,56007968100,Wyoming,Carbon County,0,1639,691,1,98.45,13.2,50652.0,4.87,4.74,381.0,41.9723619,-106.4609674
339,56015958000,Wyoming,Goshen County,0,3015,1176,1,24.63,12.1,82386.0,1.59,4.33,551.0,41.8427367,-104.3818292
340,56019955100,Wyoming,Johnson County,0,2475,1052,1,37.91,6.5,82297.0,0.18,0.0,530.0,44.0440477,-106.5885406
341,56023978200,Wyoming,Lincoln County,0,1994,738,1,56.89,5.8,63438.0,0.0,3.32,627.0,41.9386079,-110.5561793
342,56025001401,Wyoming,Natrona County,0,5620,2048,1,12.64,11.7,68076.0,1.32,6.78,1580.0,43.2083803,-106.3349847
343,56029965300,Wyoming,Park County,0,7155,3079,1,22.07,5.2,78792.0,1.95,1.09,1257.0,44.49391,-109.6675783
344,56037971600,Wyoming,Sweetwater County,0,2092,857,1,76.34,6.4,79250.0,2.11,6.09,530.0,41.6969563,-108.6560648
345,56039967600,Wyoming,Teton County,0,4600,2022,1,12.44,10.0,117682.0,0.0,0.0,882.0,44.0493205,-110.5881023
346,56043000200,Wyoming,Washakie County,0,3326,1317,1,21.95,9.7,67254.0,5.06,4.83,716.0,43.8788305,-107.669052
